[
    {
        "link": "https://boards.greenhouse.io/reddit/jobs/5953171",
        "title": "Growth Lead, Brazil (Contract)",
        "content": ["Remote - Brazil"],
        "location": {
            "city": "Remote",
            "country": "Brazil",
            "countryCode": "BR"
        }
    },
    {
        "link": "https://boards.greenhouse.io/reddit/jobs/5707699",
        "title": "Growth Lead, Italy (Contract)",
        "content": ["Remote - Italy"],
        "location": {
            "city": "Remote",
            "country": "Italy",
            "countryCode": "IT"
        }
    },
    {
        "link": "https://boards.greenhouse.io/reddit/jobs/5707695",
        "title": "Growth Lead, Philippines (Contract)",
        "content": ["Remote - Philippines"],
        "location": {
            "city": "Remote",
            "country": "Philippines",
            "countryCode": "PH"
        }
    },
    {
        "link": "https://boards.greenhouse.io/reddit/jobs/5707697",
        "title": "Growth Lead, Spain (Contract)",
        "content": ["Remote - Spain"],
        "location": {
            "city": "Remote",
            "country": "Spain",
            "countryCode": "ES"
        }
    },
    {
        "link": "https://boards.greenhouse.io/reddit/jobs/5665390",
        "title": "Italy Community Operations (Contract)",
        "content": ["Remote - Italy"],
        "location": {
            "city": "Remote",
            "country": "Italy",
            "countryCode": "IT"
        }
    },
    {
        "link": "https://boards.greenhouse.io/reddit/jobs/5665376",
        "title": "Spain Community Operations (Contract)",
        "content": ["Remote - Spain"],
        "location": {
            "city": "Remote",
            "country": "Spain",
            "countryCode": "ES"
        }
    },
    {
        "link": "https://boards.greenhouse.io/reddit/jobs/5935906",
        "title": "Product Manager, HR Applications (Workday/VNDLY)",
        "content": ["Remote - United States"],
        "location": {
            "city": "Remote",
            "country": "United States",
            "countryCode": "US"
        }
    },
    {
        "link": "https://boards.greenhouse.io/reddit/jobs/5624133",
        "title": "Senior Data Engineer, Experimentation Platform",
        "content": ["Remote - United States"],
        "location": {
            "city": "Remote",
            "country": "United States",
            "countryCode": "US"
        }
    },
    {
        "link": "https://boards.greenhouse.io/reddit/jobs/5377494",
        "title": "Staff Data Scientist, Ads Experimentation",
        "content": ["Remote - United States"],
        "location": {
            "city": "Remote",
            "country": "United States",
            "countryCode": "US"
        }
    },
    {
        "link": "https://boards.greenhouse.io/reddit/jobs/5889180",
        "title": "Staff Data Scientist, Safety Insights",
        "content": ["San Francisco, CA"],
        "location": {
            "city": "San Francisco",
            "state": "CA",
            "country": "United States",
            "stateFull": "California",
            "countryCode": "US"
        }
    },
    {
        "link": "https://boards.greenhouse.io/reddit/jobs/5891551",
        "title": "Staff Data Scientist, Safety Insights",
        "content": ["Remote - United States"],
        "location": {
            "city": "Remote",
            "country": "United States",
            "countryCode": "US"
        }
    },
    {
        "link": "https://boards.greenhouse.io/reddit/jobs/5891550",
        "title": "Staff Data Scientist, Safety Insights",
        "content": ["New York City, NY"],
        "location": {
            "city": "New York City",
            "state": "NY",
            "country": "United States",
            "stateFull": "New York",
            "countryCode": "US"
        }
    },
    {
        "link": "https://boards.greenhouse.io/reddit/jobs/5772853",
        "title": "Staff Data Scientist, Threat Detection",
        "content": ["New York City, NY"],
        "location": {
            "city": "New York City",
            "state": "NY",
            "country": "United States",
            "stateFull": "New York",
            "countryCode": "US"
        }
    },
    {
        "link": "https://boards.greenhouse.io/reddit/jobs/5772984",
        "title": "Staff Data Scientist, Threat Detection",
        "content": ["Chicago, IL"],
        "location": {
            "city": "Chicago",
            "state": "IL",
            "country": "United States",
            "stateFull": "Illinois",
            "countryCode": "US"
        }
    },
    {
        "link": "https://boards.greenhouse.io/reddit/jobs/5760617",
        "title": "Staff Data Scientist, Threat Detection",
        "content": ["San Francisco, CA"],
        "location": {
            "city": "San Francisco",
            "state": "CA",
            "country": "United States",
            "stateFull": "California",
            "countryCode": "US"
        }
    },
    {
        "link": "https://boards.greenhouse.io/reddit/jobs/5772987",
        "title": "Staff Data Scientist, Threat Detection",
        "content": ["Remote - United States"],
        "location": {
            "city": "Remote",
            "country": "United States",
            "countryCode": "US"
        }
    },
    {
        "link": "https://boards.greenhouse.io/reddit/jobs/5385438",
        "title": "Staff Frontend Software Engineer - Experimentation Platform",
        "content": ["Remote - United States"],
        "location": {
            "city": "Remote",
            "country": "United States",
            "countryCode": "US"
        }
    },
    {
        "link": "https://boards.greenhouse.io/reddit/jobs/5973868",
        "title": "Senior Software Engineer, Machine Learning (multiple positions)",
        "content": ["San Francisco, CA"],
        "location": {
            "city": "San Francisco",
            "state": "CA",
            "country": "United States",
            "stateFull": "California",
            "countryCode": "US"
        }
    },
    {
        "link": "https://boards.greenhouse.io/reddit/jobs/5828920",
        "title": "Principal Software Engineer, Ads Formats",
        "content": ["Remote - United States"],
        "location": {
            "city": "Remote",
            "country": "United States",
            "countryCode": "US"
        }
    },
    {
        "link": "https://boards.greenhouse.io/reddit/jobs/5804120",
        "title": "Senior Engineering Manager, ML (Ads Targeting)",
        "content": ["Remote - United States"],
        "location": {
            "city": "Remote",
            "country": "United States",
            "countryCode": "US"
        }
    },
    {
        "link": "https://boards.greenhouse.io/reddit/jobs/5855745",
        "title": "Senior Engineering Manager, ML (Ads Targeting)",
        "content": ["Remote - Ontario, Canada"],
        "location": {
            "city": "Ontario",
            "country": "Canada",
            "countryCode": "CA"
        }
    },
    {
        "link": "https://boards.greenhouse.io/reddit/jobs/5936626",
        "title": "Senior Machine Learning Engineer, Ads Marketplace Quality",
        "content": ["Remote - United States"],
        "location": {
            "city": "Remote",
            "country": "United States",
            "countryCode": "US"
        }
    },
    {
        "link": "https://boards.greenhouse.io/reddit/jobs/5593103",
        "title": "Senior Machine Learning Engineer, Ads Measurement",
        "content": ["Remote - British Columbia, Canada"],
        "location": {
            "city": "British Columbia",
            "country": "Canada",
            "countryCode": "CA"
        }
    },
    {
        "link": "https://boards.greenhouse.io/reddit/jobs/5589234",
        "title": "Senior Machine Learning Engineer, Ads Measurement",
        "content": ["Remote - United States"],
        "location": {
            "city": "Remote",
            "country": "United States",
            "countryCode": "US"
        }
    },
    {
        "link": "https://boards.greenhouse.io/reddit/jobs/5629529",
        "title": "Senior Machine Learning Engineer, Ads Optimization",
        "content": ["Remote - United States"],
        "location": {
            "city": "Remote",
            "country": "United States",
            "countryCode": "US"
        }
    },
    {
        "link": "https://boards.greenhouse.io/reddit/jobs/5639029",
        "title": "Senior Machine Learning Engineer, Ads Optimization",
        "content": ["Remote - Ontario, Canada"],
        "location": {
            "city": "Ontario",
            "country": "Canada",
            "countryCode": "CA"
        }
    },
    {
        "link": "https://boards.greenhouse.io/reddit/jobs/5613754",
        "title": "Senior Machine Learning Engineer, Ads Prediction",
        "content": ["Remote - United States"],
        "location": {
            "city": "Remote",
            "country": "United States",
            "countryCode": "US"
        }
    },
    {
        "link": "https://boards.greenhouse.io/reddit/jobs/5940226",
        "title": "Senior Software Engineer, Ads API platform",
        "content": ["Remote - Ontario, Canada"],
        "location": {
            "city": "Ontario",
            "country": "Canada",
            "countryCode": "CA"
        }
    },
    {
        "link": "https://boards.greenhouse.io/reddit/jobs/5946137",
        "title": "Senior Software Engineer, Ads API Platform",
        "content": ["Remote - United States"],
        "location": {
            "city": "Remote",
            "country": "United States",
            "countryCode": "US"
        }
    },
    {
        "link": "https://boards.greenhouse.io/reddit/jobs/5875132",
        "title": "Staff iOS Engineer, Ad Formats",
        "content": ["Remote - United States"],
        "location": {
            "city": "Remote",
            "country": "United States",
            "countryCode": "US"
        }
    },
    {
        "link": "https://boards.greenhouse.io/reddit/jobs/5629527",
        "title": "Staff Machine Learning Engineer, Ads Prediction",
        "content": ["Remote - United States"],
        "location": {
            "city": "Remote",
            "country": "United States",
            "countryCode": "US"
        }
    },
    {
        "link": "https://boards.greenhouse.io/reddit/jobs/5834354",
        "title": "Staff Machine Learning Engineer - Ads Targeting",
        "content": ["Remote - Ontario, Canada"],
        "location": {
            "city": "Ontario",
            "country": "Canada",
            "countryCode": "CA"
        }
    },
    {
        "link": "https://boards.greenhouse.io/reddit/jobs/5745388",
        "title": "Staff Machine Learning Engineer - Ads Targeting",
        "content": ["Remote - United States"],
        "location": {
            "city": "Remote",
            "country": "United States",
            "countryCode": "US"
        }
    },
    {
        "link": "https://boards.greenhouse.io/reddit/jobs/5908054",
        "title": "Engineering Manager, Consumer Safety",
        "content": ["Remote - British Columbia, Canada"],
        "location": {
            "city": "British Columbia",
            "country": "Canada",
            "countryCode": "CA"
        }
    },
    {
        "link": "https://boards.greenhouse.io/reddit/jobs/5908039",
        "title": "Engineering Manager, Consumer Safety",
        "content": ["Chicago, IL"],
        "location": {
            "city": "Chicago",
            "state": "IL",
            "country": "United States",
            "stateFull": "Illinois",
            "countryCode": "US"
        }
    },
    {
        "link": "https://boards.greenhouse.io/reddit/jobs/5908071",
        "title": "Engineering Manager, Consumer Safety",
        "content": ["Toronto, Canada"],
        "location": {
            "city": "Toronto",
            "country": "Canada",
            "countryCode": "CA"
        }
    },
    {
        "link": "https://boards.greenhouse.io/reddit/jobs/5908041",
        "title": "Engineering Manager, Consumer Safety",
        "content": ["New York City, NY"],
        "location": {
            "city": "New York City",
            "state": "NY",
            "country": "United States",
            "stateFull": "New York",
            "countryCode": "US"
        }
    },
    {
        "link": "https://boards.greenhouse.io/reddit/jobs/5908019",
        "title": "Engineering Manager, Consumer Safety",
        "content": ["Remote - United States"],
        "location": {
            "city": "Remote",
            "country": "United States",
            "countryCode": "US"
        }
    },
    {
        "link": "https://boards.greenhouse.io/reddit/jobs/5908034",
        "title": "Engineering Manager, Consumer Safety",
        "content": ["San Francisco, CA"],
        "location": {
            "city": "San Francisco",
            "state": "CA",
            "country": "United States",
            "stateFull": "California",
            "countryCode": "US"
        }
    },
    {
        "link": "https://boards.greenhouse.io/reddit/jobs/5908036",
        "title": "Engineering Manager, Consumer Safety",
        "content": ["Los Angeles, CA"],
        "location": {
            "city": "Los Angeles",
            "state": "CA",
            "country": "United States",
            "stateFull": "California",
            "countryCode": "US"
        }
    },
    {
        "link": "https://boards.greenhouse.io/reddit/jobs/5801499",
        "title": "Principal Engineer, Core Platform",
        "content": ["Chicago, IL"],
        "location": {
            "city": "Chicago",
            "state": "IL",
            "country": "United States",
            "stateFull": "Illinois",
            "countryCode": "US"
        }
    },
    {
        "link": "https://boards.greenhouse.io/reddit/jobs/5385424",
        "title": "Principal Engineer, Core Platform",
        "content": ["San Francisco, CA"],
        "location": {
            "city": "San Francisco",
            "state": "CA",
            "country": "United States",
            "stateFull": "California",
            "countryCode": "US"
        }
    },
    {
        "link": "https://boards.greenhouse.io/reddit/jobs/5800718",
        "title": "Principal Engineer, Core Platform",
        "content": ["New York City, NY"],
        "location": {
            "city": "New York City",
            "state": "NY",
            "country": "United States",
            "stateFull": "New York",
            "countryCode": "US"
        }
    },
    {
        "link": "https://boards.greenhouse.io/reddit/jobs/5782355",
        "title": "Senior Backend Engineer, GraphQL",
        "content": ["Chicago, IL"],
        "location": {
            "city": "Chicago",
            "state": "IL",
            "country": "United States",
            "stateFull": "Illinois",
            "countryCode": "US"
        }
    },
    {
        "link": "https://boards.greenhouse.io/reddit/jobs/5385443",
        "title": "Senior Backend Engineer, GraphQL",
        "content": ["San Francisco, CA"],
        "location": {
            "city": "San Francisco",
            "state": "CA",
            "country": "United States",
            "stateFull": "California",
            "countryCode": "US"
        }
    },
    {
        "link": "https://boards.greenhouse.io/reddit/jobs/5782356",
        "title": "Senior Backend Engineer, GraphQL",
        "content": ["Remote - United States"],
        "location": {
            "city": "Remote",
            "country": "United States",
            "countryCode": "US"
        }
    },
    {
        "link": "https://boards.greenhouse.io/reddit/jobs/5782347",
        "title": "Senior Backend Engineer, GraphQL",
        "content": ["New York City, NY"],
        "location": {
            "city": "New York City",
            "state": "NY",
            "country": "United States",
            "stateFull": "New York",
            "countryCode": "US"
        }
    },
    {
        "link": "https://boards.greenhouse.io/reddit/jobs/5872250",
        "title": "Senior Software Engineer, Data Infrastructure",
        "content": ["Seattle, WA"],
        "location": {
            "city": "Seattle",
            "state": "WA",
            "country": "United States",
            "stateFull": "Washington",
            "countryCode": "US"
        }
    },
    {
        "link": "https://boards.greenhouse.io/reddit/jobs/5872251",
        "title": "Senior Software Engineer, Data Infrastructure",
        "content": ["San Francisco, CA"],
        "location": {
            "city": "San Francisco",
            "state": "CA",
            "country": "United States",
            "stateFull": "California",
            "countryCode": "US"
        }
    },
    {
        "link": "https://boards.greenhouse.io/reddit/jobs/5747772",
        "title": "Senior Software Engineer, Data Infrastructure",
        "content": ["Remote - United States"],
        "location": {
            "city": "Remote",
            "country": "United States",
            "countryCode": "US"
        }
    },
    {
        "link": "https://boards.greenhouse.io/reddit/jobs/5872252",
        "title": "Senior Software Engineer, Data Infrastructure",
        "content": ["New York City, NY"],
        "location": {
            "city": "New York City",
            "state": "NY",
            "country": "United States",
            "stateFull": "New York",
            "countryCode": "US"
        }
    },
    {
        "link": "https://boards.greenhouse.io/reddit/jobs/5747774",
        "title": "Senior Software Engineer, Data Processing & Workflow Foundations",
        "content": ["Remote - United States"],
        "location": {
            "city": "Remote",
            "country": "United States",
            "countryCode": "US"
        }
    },
    {
        "link": "https://boards.greenhouse.io/reddit/jobs/5765889",
        "title": "Senior Software Engineer, Data Processing & Workflow Foundations",
        "content": ["New York City, NY"],
        "location": {
            "city": "New York City",
            "state": "NY",
            "country": "United States",
            "stateFull": "New York",
            "countryCode": "US"
        }
    },
    {
        "link": "https://boards.greenhouse.io/reddit/jobs/5765894",
        "title": "Senior Software Engineer, Data Processing & Workflow Foundations",
        "content": ["San Francisco, CA"],
        "location": {
            "city": "San Francisco",
            "state": "CA",
            "country": "United States",
            "stateFull": "California",
            "countryCode": "US"
        }
    },
    {
        "link": "https://boards.greenhouse.io/reddit/jobs/5765890",
        "title": "Senior Software Engineer, Data Processing & Workflow Foundations",
        "content": ["Seattle, WA"],
        "location": {
            "city": "Seattle",
            "state": "WA",
            "country": "United States",
            "stateFull": "Washington",
            "countryCode": "US"
        }
    },
    {
        "link": "https://boards.greenhouse.io/reddit/jobs/5855360",
        "title": "Senior Software Engineer, Storage",
        "content": ["Seattle, WA"],
        "location": {
            "city": "Seattle",
            "state": "WA",
            "country": "United States",
            "stateFull": "Washington",
            "countryCode": "US"
        }
    },
    {
        "link": "https://boards.greenhouse.io/reddit/jobs/5855363",
        "title": "Senior Software Engineer, Storage",
        "content": ["New York City, NY"],
        "location": {
            "city": "New York City",
            "state": "NY",
            "country": "United States",
            "stateFull": "New York",
            "countryCode": "US"
        }
    },
    {
        "link": "https://boards.greenhouse.io/reddit/jobs/5855362",
        "title": "Senior Software Engineer, Storage",
        "content": ["San Francisco, CA"],
        "location": {
            "city": "San Francisco",
            "state": "CA",
            "country": "United States",
            "stateFull": "California",
            "countryCode": "US"
        }
    },
    {
        "link": "https://boards.greenhouse.io/reddit/jobs/5850606",
        "title": "Senior Software Engineer, Storage",
        "content": ["Remote - United States"],
        "location": {
            "city": "Remote",
            "country": "United States",
            "countryCode": "US"
        }
    },
    {
        "link": "https://boards.greenhouse.io/reddit/jobs/5941871",
        "title": "Staff Backend Engineer, Core Platform Community",
        "content": ["Remote - United States"],
        "location": {
            "city": "Remote",
            "country": "United States",
            "countryCode": "US"
        }
    },
    {
        "link": "https://boards.greenhouse.io/reddit/jobs/5946332",
        "title": "Staff Software Engineer, Observability",
        "content": ["Seattle, WA"],
        "location": {
            "city": "Seattle",
            "state": "WA",
            "country": "United States",
            "stateFull": "Washington",
            "countryCode": "US"
        }
    },
    {
        "link": "https://boards.greenhouse.io/reddit/jobs/5650186",
        "title": "Staff Software Engineer, Observability",
        "content": ["Remote - United States"],
        "location": {
            "city": "Remote",
            "country": "United States",
            "countryCode": "US"
        }
    },
    {
        "link": "https://boards.greenhouse.io/reddit/jobs/5946334",
        "title": "Staff Software Engineer, Observability",
        "content": ["New York City, NY"],
        "location": {
            "city": "New York City",
            "state": "NY",
            "country": "United States",
            "stateFull": "New York",
            "countryCode": "US"
        }
    },
    {
        "link": "https://boards.greenhouse.io/reddit/jobs/5946335",
        "title": "Staff Software Engineer, Observability",
        "content": ["San Francisco, CA"],
        "location": {
            "city": "San Francisco",
            "state": "CA",
            "country": "United States",
            "stateFull": "California",
            "countryCode": "US"
        }
    },
    {
        "link": "https://boards.greenhouse.io/reddit/jobs/5330121",
        "title": "Staff Software Engineer, Web Platform",
        "content": ["Remote - United States"],
        "location": {
            "city": "Remote",
            "country": "United States",
            "countryCode": "US"
        }
    },
    {
        "link": "https://boards.greenhouse.io/reddit/jobs/5707442",
        "title": "Machine Learning Engineer - Ranking Foundation",
        "content": ["Remote - United States"],
        "location": {
            "city": "Remote",
            "country": "United States",
            "countryCode": "US"
        }
    },
    {
        "link": "https://boards.greenhouse.io/reddit/jobs/5902378",
        "title": "Senior Backend Engineer - Moderation",
        "content": ["Remote - United States"],
        "location": {
            "city": "Remote",
            "country": "United States",
            "countryCode": "US"
        }
    },
    {
        "link": "https://boards.greenhouse.io/reddit/jobs/5607212",
        "title": "Senior Android Engineer, Business Experience",
        "content": ["Remote - United States"],
        "location": {
            "city": "Remote",
            "country": "United States",
            "countryCode": "US"
        }
    },
    {
        "link": "https://boards.greenhouse.io/reddit/jobs/5643140",
        "title": "Senior iOS Software Engineer, Developer Platform",
        "content": ["Remote - United States"],
        "location": {
            "city": "Remote",
            "country": "United States",
            "countryCode": "US"
        }
    },
    {
        "link": "https://boards.greenhouse.io/reddit/jobs/5394833",
        "title": "Tech Lead - Staff iOS Engineer, Developer Platform",
        "content": ["Remote - United States"],
        "location": {
            "city": "Remote",
            "country": "United States",
            "countryCode": "US"
        }
    },
    {
        "link": "https://boards.greenhouse.io/reddit/jobs/5863008",
        "title": "Director of Engineering - Reddit X, Marketplace",
        "content": ["Chicago, IL"],
        "location": {
            "city": "Chicago",
            "state": "IL",
            "country": "United States",
            "stateFull": "Illinois",
            "countryCode": "US"
        }
    },
    {
        "link": "https://boards.greenhouse.io/reddit/jobs/5863007",
        "title": "Director of Engineering - Reddit X, Marketplace",
        "content": ["San Francisco, CA"],
        "location": {
            "city": "San Francisco",
            "state": "CA",
            "country": "United States",
            "stateFull": "California",
            "countryCode": "US"
        }
    },
    {
        "link": "https://boards.greenhouse.io/reddit/jobs/5831669",
        "title": "Director of Engineering - Reddit X, Marketplace",
        "content": ["Remote - United States"],
        "location": {
            "city": "Remote",
            "country": "United States",
            "countryCode": "US"
        }
    },
    {
        "link": "https://boards.greenhouse.io/reddit/jobs/5863009",
        "title": "Director of Engineering - Reddit X, Marketplace",
        "content": ["Los Angeles, CA"],
        "location": {
            "city": "Los Angeles",
            "state": "CA",
            "country": "United States",
            "stateFull": "California",
            "countryCode": "US"
        }
    },
    {
        "link": "https://boards.greenhouse.io/reddit/jobs/5863011",
        "title": "Director of Engineering - Reddit X, Marketplace",
        "content": ["New York City, NY"],
        "location": {
            "city": "New York City",
            "state": "NY",
            "country": "United States",
            "stateFull": "New York",
            "countryCode": "US"
        }
    },
    {
        "link": "https://boards.greenhouse.io/reddit/jobs/5644911",
        "title": "Backend Engineer, SEO",
        "content": ["Dublin, Ireland"],
        "location": {
            "city": "Dublin",
            "country": "Ireland",
            "countryCode": "IE"
        }
    },
    {
        "link": "https://boards.greenhouse.io/reddit/jobs/5943278",
        "title": "Backend Engineer, SEO",
        "content": ["London, United Kingdom"],
        "location": {
            "city": "London",
            "country": "United Kingdom",
            "countryCode": "GB"
        }
    },
    {
        "link": "https://boards.greenhouse.io/reddit/jobs/5923385",
        "title": "Engineering Manager, Growth",
        "content": ["Los Angeles, CA"],
        "location": {
            "city": "Los Angeles",
            "state": "CA",
            "country": "United States",
            "stateFull": "California",
            "countryCode": "US"
        }
    },
    {
        "link": "https://boards.greenhouse.io/reddit/jobs/5923398",
        "title": "Engineering Manager, Growth",
        "content": ["San Francisco, CA"],
        "location": {
            "city": "San Francisco",
            "state": "CA",
            "country": "United States",
            "stateFull": "California",
            "countryCode": "US"
        }
    },
    {
        "link": "https://boards.greenhouse.io/reddit/jobs/5923387",
        "title": "Engineering Manager, Growth",
        "content": ["Remote - British Columbia, Canada"],
        "location": {
            "city": "British Columbia",
            "country": "Canada",
            "countryCode": "CA"
        }
    },
    {
        "link": "https://boards.greenhouse.io/reddit/jobs/5923386",
        "title": "Engineering Manager, Growth",
        "content": ["Toronto, Canada"],
        "location": {
            "city": "Toronto",
            "country": "Canada",
            "countryCode": "CA"
        }
    },
    {
        "link": "https://boards.greenhouse.io/reddit/jobs/5923384",
        "title": "Engineering Manager, Growth",
        "content": ["Chicago, IL"],
        "location": {
            "city": "Chicago",
            "state": "IL",
            "country": "United States",
            "stateFull": "Illinois",
            "countryCode": "US"
        }
    },
    {
        "link": "https://boards.greenhouse.io/reddit/jobs/5923380",
        "title": "Engineering Manager, Growth",
        "content": ["New York City, NY"],
        "location": {
            "city": "New York City",
            "state": "NY",
            "country": "United States",
            "stateFull": "New York",
            "countryCode": "US"
        }
    },
    {
        "link": "https://boards.greenhouse.io/reddit/jobs/5852650",
        "title": "Engineering Manager, Growth",
        "content": ["Remote - United States"],
        "location": {
            "city": "Remote",
            "country": "United States",
            "countryCode": "US"
        }
    },
    {
        "link": "https://boards.greenhouse.io/reddit/jobs/5974792",
        "title": "Fullstack Engineer, Channels Foundation",
        "content": ["Toronto, Canada"],
        "location": {
            "city": "Toronto",
            "country": "Canada",
            "countryCode": "CA"
        }
    },
    {
        "link": "https://boards.greenhouse.io/reddit/jobs/5974794",
        "title": "Fullstack Engineer, Channels Foundation",
        "content": ["Remote - Ontario, Canada"],
        "location": {
            "city": "Ontario",
            "country": "Canada",
            "countryCode": "CA"
        }
    },
    {
        "link": "https://boards.greenhouse.io/reddit/jobs/5965255",
        "title": "Fullstack Engineer, Channels Foundation",
        "content": ["San Francisco, CA"],
        "location": {
            "city": "San Francisco",
            "state": "CA",
            "country": "United States",
            "stateFull": "California",
            "countryCode": "US"
        }
    },
    {
        "link": "https://boards.greenhouse.io/reddit/jobs/5965258",
        "title": "Fullstack Engineer, Channels Foundation",
        "content": ["New York City, NY"],
        "location": {
            "city": "New York City",
            "state": "NY",
            "country": "United States",
            "stateFull": "New York",
            "countryCode": "US"
        }
    },
    {
        "link": "https://boards.greenhouse.io/reddit/jobs/5873048",
        "title": "Fullstack Engineer, Channels Foundation",
        "content": ["Remote - United States"],
        "location": {
            "city": "Remote",
            "country": "United States",
            "countryCode": "US"
        }
    },
    {
        "link": "https://boards.greenhouse.io/reddit/jobs/5909427",
        "title": "Senior iOS Engineer, Moments",
        "content": ["London, United Kingdom"],
        "location": {
            "city": "London",
            "country": "United Kingdom",
            "countryCode": "GB"
        }
    },
    {
        "link": "https://boards.greenhouse.io/reddit/jobs/5396268",
        "title": "Senior iOS Engineer, Moments",
        "content": ["Dublin, Ireland"],
        "location": {
            "city": "Dublin",
            "country": "Ireland",
            "countryCode": "IE"
        }
    },
    {
        "link": "https://boards.greenhouse.io/reddit/jobs/5888888",
        "title": "Senior iOS Software Engineer - Growth",
        "content": ["Remote - United States"],
        "location": {
            "city": "Remote",
            "country": "United States",
            "countryCode": "US"
        }
    },
    {
        "link": "https://boards.greenhouse.io/reddit/jobs/5910373",
        "title": "Staff Backend Engineer, Channels Foundation",
        "content": ["Remote - United States"],
        "location": {
            "city": "Remote",
            "country": "United States",
            "countryCode": "US"
        }
    },
    {
        "link": "https://boards.greenhouse.io/reddit/jobs/5888886",
        "title": "Staff Backend Engineer, Channels Foundation",
        "content": ["San Francisco, CA"],
        "location": {
            "city": "San Francisco",
            "state": "CA",
            "country": "United States",
            "stateFull": "California",
            "countryCode": "US"
        }
    },
    {
        "link": "https://boards.greenhouse.io/reddit/jobs/5910270",
        "title": "Staff Backend Engineer, Channels Foundation",
        "content": ["New York City, NY"],
        "location": {
            "city": "New York City",
            "state": "NY",
            "country": "United States",
            "stateFull": "New York",
            "countryCode": "US"
        }
    },
    {
        "link": "https://boards.greenhouse.io/reddit/jobs/5834116",
        "title": "Staff AI Engineer",
        "content": ["Remote - United Kingdom"],
        "location": {
            "city": "Remote",
            "country": "United Kingdom",
            "countryCode": "GB"
        }
    },
    {
        "link": "https://boards.greenhouse.io/reddit/jobs/5867806",
        "title": "Staff Machine Learning Engineer, Core Relevance",
        "content": ["Remote - United States"],
        "location": {
            "city": "Remote",
            "country": "United States",
            "countryCode": "US"
        }
    },
    {
        "link": "https://boards.greenhouse.io/reddit/jobs/5910625",
        "title": "Senior Site Reliability Engineer",
        "content": ["Amsterdam, Netherlands"],
        "location": {
            "city": "Amsterdam",
            "country": "Netherlands",
            "countryCode": "NL"
        }
    },
    {
        "link": "https://boards.greenhouse.io/reddit/jobs/5910633",
        "title": "Senior Site Reliability Engineer",
        "content": ["Berlin, Germany"],
        "location": {
            "city": "Berlin",
            "country": "Germany",
            "countryCode": "DE"
        }
    },
    {
        "link": "https://boards.greenhouse.io/reddit/jobs/5910626",
        "title": "Senior Site Reliability Engineer",
        "content": ["London, United Kingdom"],
        "location": {
            "city": "London",
            "country": "United Kingdom",
            "countryCode": "GB"
        }
    },
    {
        "link": "https://boards.greenhouse.io/reddit/jobs/5893186",
        "title": "Senior Site Reliability Engineer",
        "content": ["Dublin, Ireland"],
        "location": {
            "city": "Dublin",
            "country": "Ireland",
            "countryCode": "IE"
        }
    },
    {
        "link": "https://boards.greenhouse.io/reddit/jobs/5849462",
        "title": "Procurement Operations Manager",
        "content": ["New York City, NY"],
        "location": {
            "city": "New York City",
            "state": "NY",
            "country": "United States",
            "stateFull": "New York",
            "countryCode": "US"
        }
    },
    {
        "link": "https://boards.greenhouse.io/reddit/jobs/5849460",
        "title": "Procurement Operations Manager",
        "content": ["Chicago, IL"],
        "location": {
            "city": "Chicago",
            "state": "IL",
            "country": "United States",
            "stateFull": "Illinois",
            "countryCode": "US"
        }
    },
    {
        "link": "https://boards.greenhouse.io/reddit/jobs/5835046",
        "title": "Procurement Operations Manager",
        "content": ["San Francisco, CA"],
        "location": {
            "city": "San Francisco",
            "state": "CA",
            "country": "United States",
            "stateFull": "California",
            "countryCode": "US"
        }
    },
    {
        "link": "https://boards.greenhouse.io/reddit/jobs/5849459",
        "title": "Procurement Operations Manager",
        "content": ["Los Angeles, CA"],
        "location": {
            "city": "Los Angeles",
            "state": "CA",
            "country": "United States",
            "stateFull": "California",
            "countryCode": "US"
        }
    },
    {
        "link": "https://boards.greenhouse.io/reddit/jobs/5783642",
        "title": "Sr. Field FP&A Manager",
        "content": ["Los Angeles, CA"],
        "location": {
            "city": "Los Angeles",
            "state": "CA",
            "country": "United States",
            "stateFull": "California",
            "countryCode": "US"
        }
    },
    {
        "link": "https://boards.greenhouse.io/reddit/jobs/5783629",
        "title": "Sr. Field FP&A Manager",
        "content": ["San Francisco, CA"],
        "location": {
            "city": "San Francisco",
            "state": "CA",
            "country": "United States",
            "stateFull": "California",
            "countryCode": "US"
        }
    },
    {
        "link": "https://boards.greenhouse.io/reddit/jobs/5783746",
        "title": "Sr. Field FP&A Manager",
        "content": ["New York City, NY"],
        "location": {
            "city": "New York City",
            "state": "NY",
            "country": "United States",
            "stateFull": "New York",
            "countryCode": "US"
        }
    },
    {
        "link": "https://boards.greenhouse.io/reddit/jobs/5783751",
        "title": "Sr. Field FP&A Manager",
        "content": ["Chicago, IL"],
        "location": {
            "city": "Chicago",
            "state": "IL",
            "country": "United States",
            "stateFull": "Illinois",
            "countryCode": "US"
        }
    },
    {
        "link": "https://boards.greenhouse.io/reddit/jobs/5968291",
        "title": "Technology FP&A Senior Analyst",
        "content": ["Chicago, IL"],
        "location": {
            "city": "Chicago",
            "state": "IL",
            "country": "United States",
            "stateFull": "Illinois",
            "countryCode": "US"
        }
    },
    {
        "link": "https://boards.greenhouse.io/reddit/jobs/5968294",
        "title": "Technology FP&A Senior Analyst",
        "content": ["New York City, NY"],
        "location": {
            "city": "New York City",
            "state": "NY",
            "country": "United States",
            "stateFull": "New York",
            "countryCode": "US"
        }
    },
    {
        "link": "https://boards.greenhouse.io/reddit/jobs/5968254",
        "title": "Technology FP&A Senior Analyst",
        "content": ["Los Angeles, CA"],
        "location": {
            "city": "Los Angeles",
            "state": "CA",
            "country": "United States",
            "stateFull": "California",
            "countryCode": "US"
        }
    },
    {
        "link": "https://boards.greenhouse.io/reddit/jobs/5968188",
        "title": "Technology FP&A Senior Analyst",
        "content": ["San Francisco, CA"],
        "location": {
            "city": "San Francisco",
            "state": "CA",
            "country": "United States",
            "stateFull": "California",
            "countryCode": "US"
        }
    },
    {
        "link": "https://boards.greenhouse.io/reddit/jobs/5867094",
        "title": "Associate General Counsel, APAC",
        "content": ["Remote - India"],
        "location": {
            "city": "Remote",
            "country": "India",
            "countryCode": "IN"
        }
    },
    {
        "link": "https://boards.greenhouse.io/reddit/jobs/5731414",
        "title": "Associate General Counsel, APAC",
        "content": ["Remote - Singapore"],
        "location": {
            "city": "Remote",
            "country": "Singapore",
            "countryCode": "SG"
        }
    },
    {
        "link": "https://boards.greenhouse.io/reddit/jobs/5854888",
        "title": "Grievance Officer, Reddit",
        "content": ["Remote - India"],
        "location": {
            "city": "Remote",
            "country": "India",
            "countryCode": "IN"
        }
    },
    {
        "link": "https://boards.greenhouse.io/reddit/jobs/5906849",
        "title": "Senior Privacy Counsel",
        "content": ["Remote - The Netherlands"],
        "location": {
            "city": "The",
            "country": "Netherlands",
            "countryCode": "NL"
        }
    },
    {
        "link": "https://boards.greenhouse.io/reddit/jobs/5924520",
        "title": "Experience Partner, Places",
        "content": ["San Francisco, CA"],
        "location": {
            "city": "San Francisco",
            "state": "CA",
            "country": "United States",
            "stateFull": "California",
            "countryCode": "US"
        }
    },
    {
        "link": "https://boards.greenhouse.io/reddit/jobs/5914285",
        "title": "Trust & Safety Policy - Legal Removals Policy Senior Specialist",
        "content": ["Remote - The Netherlands"],
        "location": {
            "city": "The",
            "country": "Netherlands",
            "countryCode": "NL"
        }
    },
    {
        "link": "https://boards.greenhouse.io/reddit/jobs/5910917",
        "title": "Trust & Safety Policy - Legal Removals Policy Senior Specialist",
        "content": ["Remote - Ireland"],
        "location": {
            "city": "Remote",
            "country": "Ireland",
            "countryCode": "IE"
        }
    },
    {
        "link": "https://boards.greenhouse.io/reddit/jobs/5901699",
        "title": "Senior Product Manager, Ads Marketplace",
        "content": ["Remote - United States"],
        "location": {
            "city": "Remote",
            "country": "United States",
            "countryCode": "US"
        }
    },
    {
        "link": "https://boards.greenhouse.io/reddit/jobs/5715274",
        "title": "Senior Product Manager, Ads Measurement",
        "content": ["Remote - United States"],
        "location": {
            "city": "Remote",
            "country": "United States",
            "countryCode": "US"
        }
    },
    {
        "link": "https://boards.greenhouse.io/reddit/jobs/5888263",
        "title": "Senior Group Product Manager, Content Operations",
        "content": ["Remote - United States"],
        "location": {
            "city": "Remote",
            "country": "United States",
            "countryCode": "US"
        }
    },
    {
        "link": "https://boards.greenhouse.io/reddit/jobs/5760509",
        "title": "Senior Product Manager, Channels (Notifications, Core Growth)",
        "content": ["Remote - United States"],
        "location": {
            "city": "Remote",
            "country": "United States",
            "countryCode": "US"
        }
    },
    {
        "link": "https://boards.greenhouse.io/reddit/jobs/5750982",
        "title": "Senior Product Manager, Core Experience",
        "content": ["Remote - United States"],
        "location": {
            "city": "Remote",
            "country": "United States",
            "countryCode": "US"
        }
    },
    {
        "link": "https://boards.greenhouse.io/reddit/jobs/5566467",
        "title": "Client Account Manager, Large Customer Sales",
        "content": ["Toronto, Canada"],
        "location": {
            "city": "Toronto",
            "country": "Canada",
            "countryCode": "CA"
        }
    },
    {
        "link": "https://boards.greenhouse.io/reddit/jobs/5963064",
        "title": "Senior Client Account Manager, Large Customer Sales (Restaurants & Drinks)",
        "content": ["New York City, NY"],
        "location": {
            "city": "New York City",
            "state": "NY",
            "country": "United States",
            "stateFull": "New York",
            "countryCode": "US"
        }
    },
    {
        "link": "https://boards.greenhouse.io/reddit/jobs/5963062",
        "title": "Senior Client Account Manager, Large Customer Sales (Restaurants & Drinks)",
        "content": ["Chicago, IL"],
        "location": {
            "city": "Chicago",
            "state": "IL",
            "country": "United States",
            "stateFull": "Illinois",
            "countryCode": "US"
        }
    },
    {
        "link": "https://boards.greenhouse.io/reddit/jobs/5733038",
        "title": "Senior Client Partner, Large Customer Sales",
        "content": ["Toronto, Canada"],
        "location": {
            "city": "Toronto",
            "country": "Canada",
            "countryCode": "CA"
        }
    },
    {
        "link": "https://boards.greenhouse.io/reddit/jobs/5570400",
        "title": "Senior Client Partner, Large Customer Sales (Finance)",
        "content": ["Chicago, IL"],
        "location": {
            "city": "Chicago",
            "state": "IL",
            "country": "United States",
            "stateFull": "Illinois",
            "countryCode": "US"
        }
    },
    {
        "link": "https://boards.greenhouse.io/reddit/jobs/5886292",
        "title": "Client Partner, Mid-Market",
        "content": ["Los Angeles, CA"],
        "location": {
            "city": "Los Angeles",
            "state": "CA",
            "country": "United States",
            "stateFull": "California",
            "countryCode": "US"
        }
    },
    {
        "link": "https://boards.greenhouse.io/reddit/jobs/5815313",
        "title": "Client Partner, Mid-Market (Acquisitions)",
        "content": ["New York City, NY"],
        "location": {
            "city": "New York City",
            "state": "NY",
            "country": "United States",
            "stateFull": "New York",
            "countryCode": "US"
        }
    },
    {
        "link": "https://boards.greenhouse.io/reddit/jobs/5892147",
        "title": "Client Partner, New Business, DACH",
        "content": ["Amsterdam, Netherlands"],
        "location": {
            "city": "Amsterdam",
            "country": "Netherlands",
            "countryCode": "NL"
        }
    },
    {
        "link": "https://boards.greenhouse.io/reddit/jobs/5882879",
        "title": "Director, Mid-Market Sales",
        "content": ["New York City, NY"],
        "location": {
            "city": "New York City",
            "state": "NY",
            "country": "United States",
            "stateFull": "New York",
            "countryCode": "US"
        }
    },
    {
        "link": "https://boards.greenhouse.io/reddit/jobs/5926263",
        "title": "Director, Mid-Market Sales",
        "content": ["Los Angeles, CA"],
        "location": {
            "city": "Los Angeles",
            "state": "CA",
            "country": "United States",
            "stateFull": "California",
            "countryCode": "US"
        }
    },
    {
        "link": "https://boards.greenhouse.io/reddit/jobs/5584165",
        "title": "Security Engineer, Threat Detection",
        "content": ["San Francisco, CA"],
        "location": {
            "city": "San Francisco",
            "state": "CA",
            "country": "United States",
            "stateFull": "California",
            "countryCode": "US"
        }
    },
    {
        "link": "https://boards.greenhouse.io/reddit/jobs/5663695",
        "title": "Security Engineer, Threat Detection",
        "content": ["Remote - United States"],
        "location": {
            "city": "Remote",
            "country": "United States",
            "countryCode": "US"
        }
    },
    {
        "link": "https://boards.greenhouse.io/reddit/jobs/5663692",
        "title": "Security Engineer, Threat Detection",
        "content": ["New York City, NY"],
        "location": {
            "city": "New York City",
            "state": "NY",
            "country": "United States",
            "stateFull": "New York",
            "countryCode": "US"
        }
    }
]
